[
  {
    "name": "Afghanistan",
    "description": "Kabul",
    "latitude": 34.5289,
    "longitude": 69.1725,
    "Population": 4011770,
    "Capital Type": "Capital"
  },
  {
    "name": "Albania",
    "description": "Tiranë (Tirana)",
    "latitude": 41.3275,
    "longitude": 19.8189,
    "Population": 475577,
    "Capital Type": "Capital"
  },
  {
    "name": "Algeria",
    "description": "El Djazaïr  (Algiers)",
    "latitude": 36.7525,
    "longitude": 3.042,
    "Population": 2693542,
    "Capital Type": "Capital"
  },
  {
    "name": "American Samoa",
    "description": "Pago Pago",
    "latitude": -14.2781,
    "longitude": -170.7025,
    "Population": 48526,
    "Capital Type": "Capital"
  },
  {
    "name": "Andorra",
    "description": "Andorra la Vella",
    "latitude": 42.5078,
    "longitude": 1.5211,
    "Population": 22614,
    "Capital Type": "Capital"
  },
  {
    "name": "Angola",
    "description": "Luanda",
    "latitude": -8.8368,
    "longitude": 13.2343,
    "Population": 7774200,
    "Capital Type": "Capital"
  },
  {
    "name": "Anguilla",
    "description": "The Valley",
    "latitude": 18.217,
    "longitude": -63.0578,
    "Population": 1402,
    "Capital Type": "Capital"
  },
  {
    "name": "Antigua and Barbuda",
    "description": "St. John's",
    "latitude": 17.1172,
    "longitude": -61.8457,
    "Population": 20764,
    "Capital Type": "Capital"
  },
  {
    "name": "Argentina",
    "description": "Buenos Aires",
    "latitude": -34.6051,
    "longitude": -58.4004,
    "Population": 14966530,
    "Capital Type": "Capital"
  },
  {
    "name": "Armenia",
    "description": "Yerevan",
    "latitude": 40.182,
    "longitude": 44.5146,
    "Population": 1080324,
    "Capital Type": "Capital"
  },
  {
    "name": "Aruba",
    "description": "Oranjestad",
    "latitude": 12.524,
    "longitude": -70.027,
    "Population": 29877,
    "Capital Type": "Capital"
  },
  {
    "name": "Australia",
    "description": "Canberra",
    "latitude": -35.2835,
    "longitude": 149.1281,
    "Population": 447692,
    "Capital Type": "Capital"
  },
  {
    "name": "Austria",
    "description": "Wien (Vienna)",
    "latitude": 48.2064,
    "longitude": 16.3707,
    "Population": 1900547,
    "Capital Type": "Capital"
  },
  {
    "name": "Azerbaijan",
    "description": "Baku",
    "latitude": 40.3777,
    "longitude": 49.892,
    "Population": 2285729,
    "Capital Type": "Capital"
  },
  {
    "name": "Bahamas",
    "description": "Nassau",
    "latitude": 25.0582,
    "longitude": -77.3431,
    "Population": 279668,
    "Capital Type": "Capital"
  },
  {
    "name": "Bahrain",
    "description": "Al-Manamah (Manama)",
    "latitude": 26.2154,
    "longitude": 50.5832,
    "Population": 564631,
    "Capital Type": "Capital"
  },
  {
    "name": "Bangladesh",
    "description": "Dhaka",
    "latitude": 23.7104,
    "longitude": 90.4074,
    "Population": 19578421,
    "Capital Type": "Capital"
  },
  {
    "name": "Barbados",
    "description": "Bridgetown",
    "latitude": 13.1,
    "longitude": -59.6167,
    "Population": 89201,
    "Capital Type": "Capital"
  },
  {
    "name": "Belarus",
    "description": "Minsk",
    "latitude": 53.9,
    "longitude": 27.5667,
    "Population": 2004672,
    "Capital Type": "Capital"
  },
  {
    "name": "Belgium",
    "description": "Bruxelles-Brussel",
    "latitude": 50.8467,
    "longitude": 4.3499,
    "Population": 2049510,
    "Capital Type": "Capital"
  },
  {
    "name": "Belize",
    "description": "Belmopan",
    "latitude": 17.25,
    "longitude": -88.7667,
    "Population": 22964,
    "Capital Type": "Capital"
  },
  {
    "name": "Benin",
    "description": "Cotonou",
    "latitude": 6.3654,
    "longitude": 2.4183,
    "Population": 685458,
    "Capital Type": "Economic Capital"
  },
  {
    "name": "Bermuda",
    "description": "Hamilton",
    "latitude": 32.2915,
    "longitude": -64.778,
    "Population": 10073,
    "Capital Type": "Capital"
  },
  {
    "name": "Bhutan",
    "description": "Thimphu",
    "latitude": 27.4661,
    "longitude": 89.6419,
    "Population": 203297,
    "Capital Type": "Capital"
  },
  {
    "name": "Bolivia (Plurinational State of)",
    "description": "La Paz",
    "latitude": -16.5,
    "longitude": -68.15,
    "Population": 1814087,
    "Capital Type": "Seat of Government"
  },
  {
    "name": "Bosnia and Herzegovina",
    "description": "Sarajevo",
    "latitude": 43.8486,
    "longitude": 18.3564,
    "Population": 342577,
    "Capital Type": "Capital"
  },
  {
    "name": "Botswana",
    "description": "Gaborone",
    "latitude": -24.6545,
    "longitude": 25.9086,
    "Population": 269338,
    "Capital Type": "Capital"
  },
  {
    "name": "Brazil",
    "description": "Brasília",
    "latitude": -15.7797,
    "longitude": -47.9297,
    "Population": 4469585,
    "Capital Type": "Capital"
  },
  {
    "name": "British Virgin Islands",
    "description": "Road Town",
    "latitude": 18.4167,
    "longitude": -64.6167,
    "Population": 15137,
    "Capital Type": "Capital"
  },
  {
    "name": "Brunei Darussalam",
    "description": "Bandar Seri Begawan",
    "latitude": 4.9403,
    "longitude": 114.9481,
    "Population": 40781,
    "Capital Type": "Capital"
  },
  {
    "name": "Bulgaria",
    "description": "Sofia",
    "latitude": 42.6975,
    "longitude": 23.3242,
    "Population": 1272418,
    "Capital Type": "Capital"
  },
  {
    "name": "Burkina Faso",
    "description": "Ouagadougou",
    "latitude": 12.3642,
    "longitude": -1.5383,
    "Population": 2531381,
    "Capital Type": "Capital"
  },
  {
    "name": "Burundi",
    "description": "Bujumbura",
    "latitude": -3.3822,
    "longitude": 29.3644,
    "Population": 898968,
    "Capital Type": "Capital"
  },
  {
    "name": "Cabo Verde",
    "description": "Praia",
    "latitude": 14.9215,
    "longitude": -23.5087,
    "Population": 167504,
    "Capital Type": "Capital"
  },
  {
    "name": "Cambodia",
    "description": "Phnum Pénh (Phnom Penh)",
    "latitude": 11.5625,
    "longitude": 104.916,
    "Population": 1952329,
    "Capital Type": "Capital"
  },
  {
    "name": "Cameroon",
    "description": "Yaoundé",
    "latitude": 3.8667,
    "longitude": 11.5167,
    "Population": 3655656,
    "Capital Type": "Capital"
  },
  {
    "name": "Canada",
    "description": "Ottawa-Gatineau",
    "latitude": 45.4166,
    "longitude": -75.698,
    "Population": 1363159,
    "Capital Type": "Capital"
  },
  {
    "name": "Caribbean Netherlands",
    "description": "Kralendijk",
    "latitude": 12.15,
    "longitude": -68.2667,
    "Population": 11313,
    "Capital Type": "Capital"
  },
  {
    "name": "Cayman Islands",
    "description": "George Town",
    "latitude": 19.2866,
    "longitude": -81.3744,
    "Population": 34875,
    "Capital Type": "Capital"
  },
  {
    "name": "Central African Republic",
    "description": "Bangui",
    "latitude": 4.3612,
    "longitude": 18.555,
    "Population": 850946,
    "Capital Type": "Capital"
  },
  {
    "name": "Chad",
    "description": "N'Djaména",
    "latitude": 12.1067,
    "longitude": 15.0444,
    "Population": 1322679,
    "Capital Type": "Capital"
  },
  {
    "name": "Channel Islands",
    "description": "St. Helier",
    "latitude": 49.188,
    "longitude": -2.1049,
    "Population": 34386,
    "Capital Type": "Capital"
  },
  {
    "name": "Channel Islands",
    "description": "St. Peter Port",
    "latitude": 49.4598,
    "longitude": -2.5353,
    "Population": 16271,
    "Capital Type": "Capital"
  },
  {
    "name": "Chile",
    "description": "Santiago",
    "latitude": -33.4569,
    "longitude": -70.6483,
    "Population": 6680371,
    "Capital Type": "Capital"
  },
  {
    "name": "China",
    "description": "Beijing",
    "latitude": 39.9075,
    "longitude": 116.3972,
    "Population": 19617963,
    "Capital Type": "Capital"
  },
  {
    "name": "China, Hong Kong SAR",
    "description": "Hong Kong",
    "latitude": 22.2796,
    "longitude": 114.1887,
    "Population": 7428887,
    "Capital Type": "Capital"
  },
  {
    "name": "China, Macao SAR",
    "description": "Macao",
    "latitude": 22.2006,
    "longitude": 113.5461,
    "Population": 632418,
    "Capital Type": "Capital"
  },
  {
    "name": "China, Taiwan Province of China",
    "description": "Taibei",
    "latitude": 25.047,
    "longitude": 121.5457,
    "Population": 2705791,
    "Capital Type": "Others"
  },
  {
    "name": "Colombia",
    "description": "Bogotá",
    "latitude": 4.6097,
    "longitude": -74.0818,
    "Population": 10574409,
    "Capital Type": "Capital"
  },
  {
    "name": "Comoros",
    "description": "Moroni",
    "latitude": -11.7022,
    "longitude": 43.2551,
    "Population": 62351,
    "Capital Type": "Capital"
  },
  {
    "name": "Congo",
    "description": "Brazzaville",
    "latitude": -4.2658,
    "longitude": 15.2832,
    "Population": 2229693,
    "Capital Type": "Capital"
  },
  {
    "name": "Cook Islands",
    "description": "Rarotonga",
    "latitude": -21.23,
    "longitude": -159.76,
    "Population": 13067,
    "Capital Type": "Capital"
  },
  {
    "name": "Costa Rica",
    "description": "San José",
    "latitude": 9.9278,
    "longitude": -84.0807,
    "Population": 1357745,
    "Capital Type": "Capital"
  },
  {
    "name": "Côte d'Ivoire",
    "description": "Abidjan",
    "latitude": 5.3453,
    "longitude": -4.0268,
    "Population": 4920776,
    "Capital Type": "Administrative Capital"
  },
  {
    "name": "Croatia",
    "description": "Zagreb",
    "latitude": 45.8144,
    "longitude": 15.978,
    "Population": 685587,
    "Capital Type": "Capital"
  },
  {
    "name": "Cuba",
    "description": "La Habana (Havana)",
    "latitude": 23.1195,
    "longitude": -82.3785,
    "Population": 2136468,
    "Capital Type": "Capital"
  },
  {
    "name": "Curaçao",
    "description": "Willemstad",
    "latitude": 12.1084,
    "longitude": -68.9335,
    "Population": 144037,
    "Capital Type": "Capital"
  },
  {
    "name": "Cyprus",
    "description": "Lefkosia (Nicosia)",
    "latitude": 35.1595,
    "longitude": 33.3669,
    "Population": 269469,
    "Capital Type": "Capital"
  },
  {
    "name": "Czechia",
    "description": "Praha (Prague)",
    "latitude": 50.088,
    "longitude": 14.4208,
    "Population": 1291552,
    "Capital Type": "Capital"
  },
  {
    "name": "Dem. People's Republic of Korea",
    "description": "P'yongyang",
    "latitude": 39.0339,
    "longitude": 125.7543,
    "Population": 3037862,
    "Capital Type": "Capital"
  },
  {
    "name": "Democratic Republic of the Congo",
    "description": "Kinshasa",
    "latitude": -4.3276,
    "longitude": 15.3136,
    "Population": 13171256,
    "Capital Type": "Capital"
  },
  {
    "name": "Denmark",
    "description": "København (Copenhagen)",
    "latitude": 55.6759,
    "longitude": 12.5655,
    "Population": 1320826,
    "Capital Type": "Capital"
  },
  {
    "name": "Djibouti",
    "description": "Djibouti",
    "latitude": 11.5877,
    "longitude": 43.1447,
    "Population": 561564,
    "Capital Type": "Capital"
  },
  {
    "name": "Dominica",
    "description": "Roseau",
    "latitude": 15.3017,
    "longitude": -61.3881,
    "Population": 14942,
    "Capital Type": "Capital"
  },
  {
    "name": "Dominican Republic",
    "description": "Santo Domingo",
    "latitude": 18.4896,
    "longitude": -69.9018,
    "Population": 3172152,
    "Capital Type": "Capital"
  },
  {
    "name": "Ecuador",
    "description": "Quito",
    "latitude": -0.2299,
    "longitude": -78.525,
    "Population": 1822397,
    "Capital Type": "Capital"
  },
  {
    "name": "Egypt",
    "description": "Al-Qahirah (Cairo)",
    "latitude": 30.0392,
    "longitude": 31.2394,
    "Population": 20076002,
    "Capital Type": "Capital"
  },
  {
    "name": "El Salvador",
    "description": "San Salvador",
    "latitude": 13.6894,
    "longitude": -89.1872,
    "Population": 1106698,
    "Capital Type": "Capital"
  },
  {
    "name": "Equatorial Guinea",
    "description": "Malabo",
    "latitude": 3.75,
    "longitude": 8.7833,
    "Population": 296770,
    "Capital Type": "Capital"
  },
  {
    "name": "Eritrea",
    "description": "Asmara",
    "latitude": 15.3333,
    "longitude": 38.9333,
    "Population": 895863,
    "Capital Type": "Capital"
  },
  {
    "name": "Estonia",
    "description": "Tallinn",
    "latitude": 59.437,
    "longitude": 24.7535,
    "Population": 437027,
    "Capital Type": "Capital"
  },
  {
    "name": "Ethiopia",
    "description": "Addis Ababa",
    "latitude": 9.025,
    "longitude": 38.7469,
    "Population": 4399674,
    "Capital Type": "Capital"
  },
  {
    "name": "Faeroe Islands",
    "description": "Tórshavn",
    "latitude": 62.0097,
    "longitude": -6.7716,
    "Population": 20817,
    "Capital Type": "Capital"
  },
  {
    "name": "Falkland Islands (Malvinas)",
    "description": "Stanley",
    "latitude": -51.7012,
    "longitude": -57.8494,
    "Population": 2269,
    "Capital Type": "Others"
  },
  {
    "name": "Fiji",
    "description": "Suva",
    "latitude": -18.1416,
    "longitude": 178.4415,
    "Population": 178339,
    "Capital Type": "Capital"
  },
  {
    "name": "Finland",
    "description": "Helsinki",
    "latitude": 60.1692,
    "longitude": 24.9402,
    "Population": 1279096,
    "Capital Type": "Capital"
  },
  {
    "name": "France",
    "description": "Paris",
    "latitude": 48.8534,
    "longitude": 2.3488,
    "Population": 10900952,
    "Capital Type": "Capital"
  },
  {
    "name": "French Guiana",
    "description": "Cayenne",
    "latitude": 4.9333,
    "longitude": -52.3333,
    "Population": 57506,
    "Capital Type": "Capital"
  },
  {
    "name": "French Polynesia",
    "description": "Papeete",
    "latitude": -17.5333,
    "longitude": -149.5667,
    "Population": 136005,
    "Capital Type": "Capital"
  },
  {
    "name": "Gabon",
    "description": "Libreville",
    "latitude": 0.3925,
    "longitude": 9.4537,
    "Population": 813489,
    "Capital Type": "Capital"
  },
  {
    "name": "Gambia",
    "description": "Banjul",
    "latitude": 13.4531,
    "longitude": -16.6794,
    "Population": 437161,
    "Capital Type": "Capital"
  },
  {
    "name": "Georgia",
    "description": "Tbilisi",
    "latitude": 41.6941,
    "longitude": 44.8337,
    "Population": 1077333,
    "Capital Type": "Capital"
  },
  {
    "name": "Germany",
    "description": "Berlin",
    "latitude": 52.5244,
    "longitude": 13.4105,
    "Population": 3552123,
    "Capital Type": "Capital"
  },
  {
    "name": "Ghana",
    "description": "Accra",
    "latitude": 5.556,
    "longitude": -0.1969,
    "Population": 2439389,
    "Capital Type": "Capital"
  },
  {
    "name": "Gibraltar",
    "description": "Gibraltar",
    "latitude": 36.1447,
    "longitude": -5.3526,
    "Population": 34733,
    "Capital Type": "Capital"
  },
  {
    "name": "Greece",
    "description": "Athínai (Athens)",
    "latitude": 37.9534,
    "longitude": 23.749,
    "Population": 3155600,
    "Capital Type": "Capital"
  },
  {
    "name": "Greenland",
    "description": "Nuuk (Godthåb)",
    "latitude": 64.1835,
    "longitude": -51.7216,
    "Population": 18406,
    "Capital Type": "Capital"
  },
  {
    "name": "Grenada",
    "description": "St.George's",
    "latitude": 12.0564,
    "longitude": -61.7485,
    "Population": 39297,
    "Capital Type": "Capital"
  },
  {
    "name": "Guadeloupe",
    "description": "Basse-Terre",
    "latitude": 15.9985,
    "longitude": -61.7255,
    "Population": 58397,
    "Capital Type": "Capital"
  },
  {
    "name": "Guam",
    "description": "Hagåtña",
    "latitude": 13.4757,
    "longitude": 144.7489,
    "Population": 146905,
    "Capital Type": "Capital"
  },
  {
    "name": "Guatemala",
    "description": "Ciudad de Guatemala (Guatemala City)",
    "latitude": 14.6127,
    "longitude": -90.5307,
    "Population": 2851104,
    "Capital Type": "Capital"
  },
  {
    "name": "Guinea",
    "description": "Conakry",
    "latitude": 9.5716,
    "longitude": -13.6476,
    "Population": 1843121,
    "Capital Type": "Capital"
  },
  {
    "name": "Guinea-Bissau",
    "description": "Bissau",
    "latitude": 11.8636,
    "longitude": -15.5977,
    "Population": 558399,
    "Capital Type": "Capital"
  },
  {
    "name": "Guyana",
    "description": "Georgetown",
    "latitude": 6.8045,
    "longitude": -58.1553,
    "Population": 109934,
    "Capital Type": "Capital"
  },
  {
    "name": "Haiti",
    "description": "Port-au-Prince",
    "latitude": 18.5392,
    "longitude": -72.335,
    "Population": 2636763,
    "Capital Type": "Capital"
  },
  {
    "name": "Holy See",
    "description": "Vatican City",
    "latitude": 41.9024,
    "longitude": 12.4533,
    "Population": 801,
    "Capital Type": "Capital"
  },
  {
    "name": "Honduras",
    "description": "Tegucigalpa",
    "latitude": 14.0818,
    "longitude": -87.2068,
    "Population": 1363041,
    "Capital Type": "Capital"
  },
  {
    "name": "Hungary",
    "description": "Budapest",
    "latitude": 47.498,
    "longitude": 19.0399,
    "Population": 1759497,
    "Capital Type": "Capital"
  },
  {
    "name": "Iceland",
    "description": "Reykjavík",
    "latitude": 64.1355,
    "longitude": -21.8954,
    "Population": 216364,
    "Capital Type": "Capital"
  },
  {
    "name": "India",
    "description": "Delhi",
    "latitude": 28.6667,
    "longitude": 77.2167,
    "Population": 28513682,
    "Capital Type": "Capital"
  },
  {
    "name": "Indonesia",
    "description": "Jakarta",
    "latitude": -6.2118,
    "longitude": 106.8416,
    "Population": 10516927,
    "Capital Type": "Capital"
  },
  {
    "name": "Iran (Islamic Republic of)",
    "description": "Tehran",
    "latitude": 35.6944,
    "longitude": 51.4215,
    "Population": 8895947,
    "Capital Type": "Capital"
  },
  {
    "name": "Iraq",
    "description": "Baghdad",
    "latitude": 33.3406,
    "longitude": 44.4009,
    "Population": 6811955,
    "Capital Type": "Capital"
  },
  {
    "name": "Ireland",
    "description": "Dublin",
    "latitude": 53.3331,
    "longitude": -6.2489,
    "Population": 1201426,
    "Capital Type": "Capital"
  },
  {
    "name": "Isle of Man",
    "description": "Douglas",
    "latitude": 54.15,
    "longitude": -4.4833,
    "Population": 27171,
    "Capital Type": "Capital"
  },
  {
    "name": "Israel",
    "description": "Jerusalem",
    "latitude": 31.769,
    "longitude": 35.2163,
    "Population": 907062,
    "Capital Type": "Capital"
  },
  {
    "name": "Italy",
    "description": "Roma (Rome)",
    "latitude": 41.8947,
    "longitude": 12.4811,
    "Population": 4209710,
    "Capital Type": "Capital"
  },
  {
    "name": "Jamaica",
    "description": "Kingston",
    "latitude": 17.997,
    "longitude": -76.7936,
    "Population": 589083,
    "Capital Type": "Capital"
  },
  {
    "name": "Japan",
    "description": "Tokyo",
    "latitude": 35.6895,
    "longitude": 139.6917,
    "Population": 37468302,
    "Capital Type": "Capital"
  },
  {
    "name": "Jordan",
    "description": "Amman",
    "latitude": 31.9552,
    "longitude": 35.945,
    "Population": 2064582,
    "Capital Type": "Capital"
  },
  {
    "name": "Kazakhstan",
    "description": "Astana",
    "latitude": 51.1801,
    "longitude": 71.446,
    "Population": 1068113,
    "Capital Type": "Capital"
  },
  {
    "name": "Kenya",
    "description": "Nairobi",
    "latitude": -1.2833,
    "longitude": 36.8167,
    "Population": 4385853,
    "Capital Type": "Capital"
  },
  {
    "name": "Kiribati",
    "description": "Tarawa",
    "latitude": 1.3272,
    "longitude": 172.9813,
    "Population": 64011,
    "Capital Type": "Capital"
  },
  {
    "name": "Kuwait",
    "description": "Al Kuwayt (Kuwait City)",
    "latitude": 29.3697,
    "longitude": 47.9783,
    "Population": 2989270,
    "Capital Type": "Capital"
  },
  {
    "name": "Kyrgyzstan",
    "description": "Bishkek",
    "latitude": 42.87,
    "longitude": 74.59,
    "Population": 996319,
    "Capital Type": "Capital"
  },
  {
    "name": "Lao People's Democratic Republic",
    "description": "Vientiane",
    "latitude": 17.9667,
    "longitude": 102.6,
    "Population": 664754,
    "Capital Type": "Capital"
  },
  {
    "name": "Latvia",
    "description": "Riga",
    "latitude": 56.946,
    "longitude": 24.1059,
    "Population": 637089,
    "Capital Type": "Capital"
  },
  {
    "name": "Lebanon",
    "description": "Bayrut (Beirut)",
    "latitude": 33.9,
    "longitude": 35.4833,
    "Population": 2385271,
    "Capital Type": "Capital"
  },
  {
    "name": "Lesotho",
    "description": "Maseru",
    "latitude": -29.3167,
    "longitude": 27.4833,
    "Population": 201851,
    "Capital Type": "Capital"
  },
  {
    "name": "Liberia",
    "description": "Monrovia",
    "latitude": 6.3005,
    "longitude": -10.7969,
    "Population": 1418300,
    "Capital Type": "Capital"
  },
  {
    "name": "Libya",
    "description": "Tarabulus (Tripoli)",
    "latitude": 32.8752,
    "longitude": 13.1875,
    "Population": 1157746,
    "Capital Type": "Capital"
  },
  {
    "name": "Liechtenstein",
    "description": "Vaduz",
    "latitude": 47.1415,
    "longitude": 9.5215,
    "Population": 5470,
    "Capital Type": "Capital"
  },
  {
    "name": "Lithuania",
    "description": "Vilnius",
    "latitude": 54.6892,
    "longitude": 25.2798,
    "Population": 536055,
    "Capital Type": "Capital"
  },
  {
    "name": "Luxembourg",
    "description": "Luxembourg",
    "latitude": 49.6117,
    "longitude": 6.13,
    "Population": 119752,
    "Capital Type": "Capital"
  },
  {
    "name": "Madagascar",
    "description": "Antananarivo",
    "latitude": -18.9137,
    "longitude": 47.5361,
    "Population": 3058387,
    "Capital Type": "Capital"
  },
  {
    "name": "Malawi",
    "description": "Lilongwe",
    "latitude": -13.9669,
    "longitude": 33.7873,
    "Population": 1029639,
    "Capital Type": "Capital"
  },
  {
    "name": "Malaysia",
    "description": "Kuala Lumpur",
    "latitude": 3.1412,
    "longitude": 101.6865,
    "Population": 7563912,
    "Capital Type": "Capital"
  },
  {
    "name": "Maldives",
    "description": "Male",
    "latitude": 4.1748,
    "longitude": 73.5089,
    "Population": 176851,
    "Capital Type": "Capital"
  },
  {
    "name": "Mali",
    "description": "Bamako",
    "latitude": 12.65,
    "longitude": -8,
    "Population": 2446749,
    "Capital Type": "Capital"
  },
  {
    "name": "Malta",
    "description": "Valletta",
    "latitude": 35.8997,
    "longitude": 14.5147,
    "Population": 212768,
    "Capital Type": "Capital"
  },
  {
    "name": "Marshall Islands",
    "description": "Majuro",
    "latitude": 7.0897,
    "longitude": 171.3803,
    "Population": 30661,
    "Capital Type": "Capital"
  },
  {
    "name": "Martinique",
    "description": "Fort-de-France",
    "latitude": 14.6089,
    "longitude": -61.0733,
    "Population": 79361,
    "Capital Type": "Capital"
  },
  {
    "name": "Mauritania",
    "description": "Nouakchott",
    "latitude": 18.0858,
    "longitude": -15.9785,
    "Population": 1205414,
    "Capital Type": "Capital"
  },
  {
    "name": "Mauritius",
    "description": "Port Louis",
    "latitude": -20.1619,
    "longitude": 57.4989,
    "Population": 149365,
    "Capital Type": "Capital"
  },
  {
    "name": "Mayotte",
    "description": "Mamoudzou",
    "latitude": -12.7794,
    "longitude": 45.2272,
    "Population": 6180,
    "Capital Type": "Capital"
  },
  {
    "name": "Mexico",
    "description": "Ciudad de México (Mexico City)",
    "latitude": 19.4273,
    "longitude": -99.1419,
    "Population": 21580827,
    "Capital Type": "Capital"
  },
  {
    "name": "Micronesia (Fed. States of)",
    "description": "Palikir",
    "latitude": 6.9174,
    "longitude": 158.1588,
    "Population": 6996,
    "Capital Type": "Capital"
  },
  {
    "name": "Monaco",
    "description": "Monaco",
    "latitude": 43.7333,
    "longitude": 7.4167,
    "Population": 38897,
    "Capital Type": "Capital"
  },
  {
    "name": "Mongolia",
    "description": "Ulaanbaatar",
    "latitude": 47.9077,
    "longitude": 106.8832,
    "Population": 1520381,
    "Capital Type": "Capital"
  },
  {
    "name": "Montenegro",
    "description": "Podgorica",
    "latitude": 42.4411,
    "longitude": 19.2636,
    "Population": 177177,
    "Capital Type": "Capital"
  },
  {
    "name": "Montserrat",
    "description": "Brades Estate",
    "latitude": 16.7918,
    "longitude": -62.2106,
    "Population": 472,
    "Capital Type": "Capital"
  },
  {
    "name": "Morocco",
    "description": "Rabat",
    "latitude": 34.0133,
    "longitude": -6.8326,
    "Population": 1846661,
    "Capital Type": "Capital"
  },
  {
    "name": "Mozambique",
    "description": "Maputo",
    "latitude": -25.9653,
    "longitude": 32.5892,
    "Population": 1101771,
    "Capital Type": "Capital"
  },
  {
    "name": "Myanmar",
    "description": "Nay Pyi Taw",
    "latitude": 19.745,
    "longitude": 96.1297,
    "Population": 500218,
    "Capital Type": "Capital"
  },
  {
    "name": "Namibia",
    "description": "Windhoek",
    "latitude": -22.5594,
    "longitude": 17.0832,
    "Population": 404280,
    "Capital Type": "Capital"
  },
  {
    "name": "Nauru",
    "description": "Nauru",
    "latitude": -0.5308,
    "longitude": 166.9112,
    "Population": 11312,
    "Capital Type": "Capital"
  },
  {
    "name": "Nepal",
    "description": "Kathmandu",
    "latitude": 27.7017,
    "longitude": 85.3206,
    "Population": 1329732,
    "Capital Type": "Capital"
  },
  {
    "name": "Netherlands",
    "description": "Amsterdam",
    "latitude": 52.374,
    "longitude": 4.8897,
    "Population": 1131690,
    "Capital Type": "Capital"
  },
  {
    "name": "New Caledonia",
    "description": "Nouméa",
    "latitude": -22.2763,
    "longitude": 166.4572,
    "Population": 197787,
    "Capital Type": "Capital"
  },
  {
    "name": "New Zealand",
    "description": "Wellington",
    "latitude": -41.2866,
    "longitude": 174.7756,
    "Population": 411346,
    "Capital Type": "Capital"
  },
  {
    "name": "Nicaragua",
    "description": "Managua",
    "latitude": 12.1328,
    "longitude": -86.2504,
    "Population": 1047923,
    "Capital Type": "Capital"
  },
  {
    "name": "Niger",
    "description": "Niamey",
    "latitude": 13.5137,
    "longitude": 2.1098,
    "Population": 1213781,
    "Capital Type": "Capital"
  },
  {
    "name": "Nigeria",
    "description": "Abuja",
    "latitude": 9.0574,
    "longitude": 7.4898,
    "Population": 2918518,
    "Capital Type": "Capital"
  },
  {
    "name": "Niue",
    "description": "Alofi",
    "latitude": -19.0585,
    "longitude": -169.9213,
    "Population": 727,
    "Capital Type": "Capital"
  },
  {
    "name": "Northern Mariana Islands",
    "description": "Saipan",
    "latitude": 15.2123,
    "longitude": 145.7545,
    "Population": 50568,
    "Capital Type": "Capital"
  },
  {
    "name": "Norway",
    "description": "Oslo",
    "latitude": 59.9127,
    "longitude": 10.7461,
    "Population": 1012225,
    "Capital Type": "Capital"
  },
  {
    "name": "Oman",
    "description": "Masqat (Muscat)",
    "latitude": 23.6139,
    "longitude": 58.5922,
    "Population": 1446563,
    "Capital Type": "Capital"
  },
  {
    "name": "Pakistan",
    "description": "Islamabad",
    "latitude": 33.7035,
    "longitude": 73.0594,
    "Population": 1061412,
    "Capital Type": "Capital"
  },
  {
    "name": "Palau",
    "description": "Koror",
    "latitude": 7.3426,
    "longitude": 134.4789,
    "Population": 11410,
    "Capital Type": "Capital"
  },
  {
    "name": "Panama",
    "description": "Ciudad de Panamá (Panama City)",
    "latitude": 8.9958,
    "longitude": -79.5196,
    "Population": 1783490,
    "Capital Type": "Capital"
  },
  {
    "name": "Papua New Guinea",
    "description": "Port Moresby",
    "latitude": -9.4431,
    "longitude": 147.1797,
    "Population": 366862,
    "Capital Type": "Capital"
  },
  {
    "name": "Paraguay",
    "description": "Asunción",
    "latitude": -25.3007,
    "longitude": -57.6359,
    "Population": 3222199,
    "Capital Type": "Capital"
  },
  {
    "name": "Peru",
    "description": "Lima",
    "latitude": -12.0432,
    "longitude": -77.0282,
    "Population": 10390607,
    "Capital Type": "Capital"
  },
  {
    "name": "Philippines",
    "description": "Manila",
    "latitude": 14.6042,
    "longitude": 120.9822,
    "Population": 13482468,
    "Capital Type": "Capital"
  },
  {
    "name": "Poland",
    "description": "Warszawa (Warsaw)",
    "latitude": 52.2298,
    "longitude": 21.0118,
    "Population": 1767798,
    "Capital Type": "Capital"
  },
  {
    "name": "Portugal",
    "description": "Lisboa (Lisbon)",
    "latitude": 38.7169,
    "longitude": -9.1399,
    "Population": 2927316,
    "Capital Type": "Capital"
  },
  {
    "name": "Puerto Rico",
    "description": "San Juan",
    "latitude": 18.4663,
    "longitude": -66.1057,
    "Population": 2454337,
    "Capital Type": "Capital"
  },
  {
    "name": "Qatar",
    "description": "Ad-Dawhah (Doha)",
    "latitude": 25.2747,
    "longitude": 51.5245,
    "Population": 633401,
    "Capital Type": "Capital"
  },
  {
    "name": "Republic of Korea",
    "description": "Seoul",
    "latitude": 37.5683,
    "longitude": 126.9778,
    "Population": 9963497,
    "Capital Type": "Capital"
  },
  {
    "name": "Republic of Moldova",
    "description": "Chişinău",
    "latitude": 47.0056,
    "longitude": 28.8575,
    "Population": 509707,
    "Capital Type": "Capital"
  },
  {
    "name": "Réunion",
    "description": "Saint-Denis",
    "latitude": -20.8823,
    "longitude": 55.4504,
    "Population": 147209,
    "Capital Type": "Capital"
  },
  {
    "name": "Romania",
    "description": "Bucuresti (Bucharest)",
    "latitude": 44.4328,
    "longitude": 26.1043,
    "Population": 1821380,
    "Capital Type": "Capital"
  },
  {
    "name": "Russian Federation",
    "description": "Moskva (Moscow)",
    "latitude": 55.755,
    "longitude": 37.6218,
    "Population": 12409738,
    "Capital Type": "Capital"
  },
  {
    "name": "Rwanda",
    "description": "Kigali",
    "latitude": -1.9474,
    "longitude": 30.0579,
    "Population": 1057836,
    "Capital Type": "Capital"
  },
  {
    "name": "Saint Helena",
    "description": "Jamestown",
    "latitude": -15.9387,
    "longitude": -5.7168,
    "Population": 603,
    "Capital Type": "Capital"
  },
  {
    "name": "Saint Kitts and Nevis",
    "description": "Basseterre",
    "latitude": 17.2948,
    "longitude": -62.7261,
    "Population": 14434,
    "Capital Type": "Capital"
  },
  {
    "name": "Saint Lucia",
    "description": "Castries",
    "latitude": 14.006,
    "longitude": -60.991,
    "Population": 22258,
    "Capital Type": "Capital"
  },
  {
    "name": "Saint Pierre and Miquelon",
    "description": "Saint-Pierre",
    "latitude": 46.7738,
    "longitude": -56.1815,
    "Population": 5723,
    "Capital Type": "Capital"
  },
  {
    "name": "Saint Vincent and the Grenadines",
    "description": "Kingstown",
    "latitude": 13.1587,
    "longitude": -61.2248,
    "Population": 26636,
    "Capital Type": "Capital"
  },
  {
    "name": "Samoa",
    "description": "Apia",
    "latitude": -13.8333,
    "longitude": -171.7667,
    "Population": 36066,
    "Capital Type": "Capital"
  },
  {
    "name": "San Marino",
    "description": "San Marino",
    "latitude": 43.9333,
    "longitude": 12.45,
    "Population": 4465,
    "Capital Type": "Capital"
  },
  {
    "name": "Sao Tome and Principe",
    "description": "São Tomé",
    "latitude": 0.3365,
    "longitude": 6.7273,
    "Population": 80099,
    "Capital Type": "Capital"
  },
  {
    "name": "Saudi Arabia",
    "description": "Ar-Riyadh (Riyadh)",
    "latitude": 24.6905,
    "longitude": 46.7096,
    "Population": 6906595,
    "Capital Type": "Capital"
  },
  {
    "name": "Senegal",
    "description": "Dakar",
    "latitude": 14.6937,
    "longitude": -17.4441,
    "Population": 2978419,
    "Capital Type": "Capital"
  },
  {
    "name": "Serbia",
    "description": "Beograd (Belgrade)",
    "latitude": 44.8176,
    "longitude": 20.4633,
    "Population": 1389351,
    "Capital Type": "Capital"
  },
  {
    "name": "Seychelles",
    "description": "Victoria",
    "latitude": -4.6167,
    "longitude": 55.45,
    "Population": 28091,
    "Capital Type": "Capital"
  },
  {
    "name": "Sierra Leone",
    "description": "Freetown",
    "latitude": 8.484,
    "longitude": -13.2299,
    "Population": 1135949,
    "Capital Type": "Capital"
  },
  {
    "name": "Singapore",
    "description": "Singapore",
    "latitude": 1.2897,
    "longitude": 103.8501,
    "Population": 5791901,
    "Capital Type": "Capital"
  },
  {
    "name": "Sint Maarten (Dutch part)",
    "description": "Philipsburg",
    "latitude": 18.026,
    "longitude": -63.0458,
    "Population": 40552,
    "Capital Type": "Capital"
  },
  {
    "name": "Slovakia",
    "description": "Bratislava",
    "latitude": 48.1482,
    "longitude": 17.1067,
    "Population": 429920,
    "Capital Type": "Capital"
  },
  {
    "name": "Slovenia",
    "description": "Ljubljana",
    "latitude": 46.0511,
    "longitude": 14.5051,
    "Population": 286491,
    "Capital Type": "Capital"
  },
  {
    "name": "Solomon Islands",
    "description": "Honiara",
    "latitude": -9.4333,
    "longitude": 159.95,
    "Population": 81801,
    "Capital Type": "Capital"
  },
  {
    "name": "Somalia",
    "description": "Muqdisho (Mogadishu)",
    "latitude": 2.0416,
    "longitude": 45.3435,
    "Population": 2081624,
    "Capital Type": "Capital"
  },
  {
    "name": "South Africa",
    "description": "Cape Town",
    "latitude": -33.9258,
    "longitude": 18.4232,
    "Population": 4430367,
    "Capital Type": "Legislative Capital"
  },
  {
    "name": "South Sudan",
    "description": "Juba",
    "latitude": 4.8517,
    "longitude": 31.5825,
    "Population": 368914,
    "Capital Type": "Capital"
  },
  {
    "name": "Spain",
    "description": "Madrid",
    "latitude": 40.4165,
    "longitude": -3.7026,
    "Population": 6497124,
    "Capital Type": "Capital"
  },
  {
    "name": "Sri Lanka",
    "description": "Colombo",
    "latitude": 6.9319,
    "longitude": 79.8478,
    "Population": 599821,
    "Capital Type": "Capital"
  },
  {
    "name": "State of Palestine",
    "description": "Al-Quds[East Jerusalem]",
    "latitude": 31.7834,
    "longitude": 35.2339,
    "Population": 275086,
    "Capital Type": "Capital"
  },
  {
    "name": "Sudan",
    "description": "Al-Khartum (Khartoum)",
    "latitude": 15.5518,
    "longitude": 32.5324,
    "Population": 5534079,
    "Capital Type": "Capital"
  },
  {
    "name": "Suriname",
    "description": "Paramaribo",
    "latitude": 5.8664,
    "longitude": -55.1668,
    "Population": 239457,
    "Capital Type": "Capital"
  },
  {
    "name": "Swaziland",
    "description": "Mbabane",
    "latitude": -26.3167,
    "longitude": 31.1333,
    "Population": 68010,
    "Capital Type": "Capital"
  },
  {
    "name": "Sweden",
    "description": "Stockholm",
    "latitude": 59.3326,
    "longitude": 18.0649,
    "Population": 1582968,
    "Capital Type": "Capital"
  },
  {
    "name": "Switzerland",
    "description": "Bern",
    "latitude": 46.9481,
    "longitude": 7.4474,
    "Population": 422153,
    "Capital Type": "Capital"
  },
  {
    "name": "Syrian Arab Republic",
    "description": "Dimashq (Damascus)",
    "latitude": 33.5086,
    "longitude": 36.3084,
    "Population": 2319545,
    "Capital Type": "Capital"
  },
  {
    "name": "Tajikistan",
    "description": "Dushanbe",
    "latitude": 38.5358,
    "longitude": 68.7791,
    "Population": 872653,
    "Capital Type": "Capital"
  },
  {
    "name": "TFYR Macedonia",
    "description": "Skopje",
    "latitude": 42,
    "longitude": 21.4333,
    "Population": 584208,
    "Capital Type": "Capital"
  },
  {
    "name": "Thailand",
    "description": "Krung Thep (Bangkok)",
    "latitude": 13.722,
    "longitude": 100.5252,
    "Population": 10156316,
    "Capital Type": "Capital"
  },
  {
    "name": "Timor-Leste",
    "description": "Dili",
    "latitude": -8.5601,
    "longitude": 125.5668,
    "Population": 281135,
    "Capital Type": "Capital"
  },
  {
    "name": "Togo",
    "description": "Lomé",
    "latitude": 6.1375,
    "longitude": 1.2123,
    "Population": 1745744,
    "Capital Type": "Capital"
  },
  {
    "name": "Tokelau",
    "description": "Tokelau",
    "latitude": -9.38,
    "longitude": -171.25,
    "Population": 0,
    "Capital Type": "Others"
  },
  {
    "name": "Tonga",
    "description": "Nuku'alofa",
    "latitude": -21.1394,
    "longitude": -175.2032,
    "Population": 22904,
    "Capital Type": "Capital"
  },
  {
    "name": "Trinidad and Tobago",
    "description": "Port of Spain",
    "latitude": 10.6662,
    "longitude": -61.5166,
    "Population": 544417,
    "Capital Type": "Capital"
  },
  {
    "name": "Tunisia",
    "description": "Tunis",
    "latitude": 36.819,
    "longitude": 10.1658,
    "Population": 2290777,
    "Capital Type": "Capital"
  },
  {
    "name": "Turkey",
    "description": "Ankara",
    "latitude": 39.9199,
    "longitude": 32.8543,
    "Population": 4919074,
    "Capital Type": "Capital"
  },
  {
    "name": "Turkmenistan",
    "description": "Ashgabat",
    "latitude": 37.95,
    "longitude": 58.3833,
    "Population": 810186,
    "Capital Type": "Capital"
  },
  {
    "name": "Turks and Caicos Islands",
    "description": "Cockburn Town",
    "latitude": 21.4612,
    "longitude": -71.1419,
    "Population": 5447,
    "Capital Type": "Capital"
  },
  {
    "name": "Tuvalu",
    "description": "Funafuti",
    "latitude": -8.5189,
    "longitude": 179.1991,
    "Population": 7042,
    "Capital Type": "Capital"
  },
  {
    "name": "Uganda",
    "description": "Kampala",
    "latitude": 0.3163,
    "longitude": 32.5822,
    "Population": 2986352,
    "Capital Type": "Capital"
  },
  {
    "name": "Ukraine",
    "description": "Kyiv (Kiev)",
    "latitude": 50.4454,
    "longitude": 30.5186,
    "Population": 2956706,
    "Capital Type": "Capital"
  },
  {
    "name": "United Arab Emirates",
    "description": "Abu Zaby (Abu Dhabi)",
    "latitude": 24.4648,
    "longitude": 54.3618,
    "Population": 1419699,
    "Capital Type": "Capital"
  },
  {
    "name": "United Kingdom",
    "description": "London",
    "latitude": 51.5085,
    "longitude": -0.1257,
    "Population": 9046485,
    "Capital Type": "Capital"
  },
  {
    "name": "United Republic of Tanzania",
    "description": "Dodoma",
    "latitude": -6.1722,
    "longitude": 35.7395,
    "Population": 261645,
    "Capital Type": "Capital"
  },
  {
    "name": "United States of America",
    "description": "Washington, D.C.",
    "latitude": 38.8951,
    "longitude": -77.0364,
    "Population": 5206593,
    "Capital Type": "Capital"
  },
  {
    "name": "United States Virgin Islands",
    "description": "Charlotte Amalie",
    "latitude": 18.3419,
    "longitude": -64.9307,
    "Population": 52322,
    "Capital Type": "Capital"
  },
  {
    "name": "Uruguay",
    "description": "Montevideo",
    "latitude": -34.8335,
    "longitude": -56.1674,
    "Population": 1736989,
    "Capital Type": "Capital"
  },
  {
    "name": "Uzbekistan",
    "description": "Tashkent",
    "latitude": 41.2647,
    "longitude": 69.2163,
    "Population": 2463969,
    "Capital Type": "Capital"
  },
  {
    "name": "Vanuatu",
    "description": "Port Vila",
    "latitude": -17.7338,
    "longitude": 168.3219,
    "Population": 52690,
    "Capital Type": "Capital"
  },
  {
    "name": "Venezuela (Bolivarian Republic of)",
    "description": "Caracas",
    "latitude": 10.488,
    "longitude": -66.8792,
    "Population": 2934560,
    "Capital Type": "Capital"
  },
  {
    "name": "Viet Nam",
    "description": "Hà Noi",
    "latitude": 21.0245,
    "longitude": 105.8412,
    "Population": 4282738,
    "Capital Type": "Capital"
  },
  {
    "name": "Wallis and Futuna Islands",
    "description": "Matu-Utu",
    "latitude": -13.2816,
    "longitude": -176.1745,
    "Population": 1025,
    "Capital Type": "Capital"
  },
  {
    "name": "Western Sahara",
    "description": "El Aaiún",
    "latitude": 27.1532,
    "longitude": -13.2014,
    "Population": 232388,
    "Capital Type": "Capital"
  },
  {
    "name": "Yemen",
    "description": "Sana'a'",
    "latitude": 15.3531,
    "longitude": 44.2078,
    "Population": 2779317,
    "Capital Type": "Capital"
  },
  {
    "name": "Zambia",
    "description": "Lusaka",
    "latitude": -15.4134,
    "longitude": 28.2771,
    "Population": 2523844,
    "Capital Type": "Capital"
  },
  {
    "name": "Zimbabwe",
    "description": "Harare",
    "latitude": -17.8294,
    "longitude": 31.0539,
    "Population": 1515016,
    "Capital Type": "Capital"
  }
]
